[{
  "_id": {
    "$oid": "64786c74e0b13af8bfed50fc"
  },
  "Circuits": [
    {
      "circuitId": "albert_park",
      "url": "https://i.ibb.co/4JbSqFy/Melbourne.png",
      "circuitName": "Albert Park Grand Prix Circuit",
      "Location": {
        "lat": "-37.8497",
        "long": "144.968",
        "locality": "Melbourne",
        "country": "Australia"
      }
    },
    {
      "circuitId": "americas",
      "url": "https://i.ibb.co/5RBxrXH/USA.png",
      "circuitName": "Circuit of the Americas",
      "Location": {
        "lat": "30.1328",
        "long": "-97.6411",
        "locality": "Austin",
        "country": "USA"
      }
    },
    {
      "circuitId": "bahrain",
      "url": "https://i.ibb.co/gZht3CR/Bahrain.png",
      "circuitName": "Bahrain International Circuit",
      "Location": {
        "lat": "26.0325",
        "long": "50.5106",
        "locality": "Sakhir",
        "country": "Bahrain"
      }
    },
    {
      "circuitId": "baku",
      "url": "https://i.ibb.co/smXj6Tq/Baku.png",
      "circuitName": "Baku City Circuit",
      "Location": {
        "lat": "40.3725",
        "long": "49.8533",
        "locality": "Baku",
        "country": "Azerbaijan"
      }
    },
    {
      "circuitId": "catalunya",
      "url": "https://i.ibb.co/yf15YGz/Barcelona.png",
      "circuitName": "Circuit de Barcelona-Catalunya",
      "Location": {
        "lat": "41.57",
        "long": "2.26111",
        "locality": "Montmeló",
        "country": "Spain"
      }
    },
    {
      "circuitId": "hockenheimring",
      "url": "https://i.ibb.co/g4qTPZ8/Germany.png",
      "circuitName": "Hockenheimring",
      "Location": {
        "lat": "49.3278",
        "long": "8.56583",
        "locality": "Hockenheim",
        "country": "Germany"
      }
    },
    {
      "circuitId": "hungaroring",
      "url": "https://i.ibb.co/S35nvgc/Hungary.png",
      "circuitName": "Hungaroring",
      "Location": {
        "lat": "47.5789",
        "long": "19.2486",
        "locality": "Budapest",
        "country": "Hungary"
      }
    },
    {
      "circuitId": "marina_bay",
      "url": "https://i.ibb.co/m6rjftN/Singapore.png",
      "circuitName": "Marina Bay Street Circuit",
      "Location": {
        "lat": "1.2914",
        "long": "103.864",
        "locality": "Marina Bay",
        "country": "Singapore"
      }
    },
    {
      "circuitId": "monaco",
      "url": "https://i.ibb.co/r4nFSbt/Monaco.png",
      "circuitName": "Circuit de Monaco",
      "Location": {
        "lat": "43.7347",
        "long": "7.42056",
        "locality": "Monte-Carlo",
        "country": "Monaco"
      }
    },
    {
      "circuitId": "monza",
      "url": "https://i.ibb.co/nr46XWh/Monza.png",
      "circuitName": "Autodromo Nazionale di Monza",
      "Location": {
        "lat": "45.6156",
        "long": "9.28111",
        "locality": "Monza",
        "country": "Italy"
      }
    },
    {
      "circuitId": "red_bull_ring",
      "url": "https://i.ibb.co/0DjwSKf/Austria.png",
      "circuitName": "Red Bull Ring",
      "Location": {
        "lat": "47.2197",
        "long": "14.7647",
        "locality": "Spielberg",
        "country": "Austria"
      }
    },
    {
      "circuitId": "ricard",
      "url": "https://i.ibb.co/FxdzPKs/France.png",
      "circuitName": "Circuit Paul Ricard",
      "Location": {
        "lat": "43.2506",
        "long": "5.79167",
        "locality": "Le Castellet",
        "country": "France"
      }
    },
    {
      "circuitId": "rodriguez",
      "url": "https://i.ibb.co/61sfpfM/Mexico.png",
      "circuitName": "Autódromo Hermanos Rodríguez",
      "Location": {
        "lat": "19.4042",
        "long": "-99.0907",
        "locality": "Mexico City",
        "country": "Mexico"
      }
    },
    {
      "circuitId": "shanghai",
      "url": "https://i.ibb.co/gdWLyKM/Shanghai.png",
      "circuitName": "Shanghai International Circuit",
      "Location": {
        "lat": "31.3389",
        "long": "121.22",
        "locality": "Shanghai",
        "country": "China"
      }
    },
    {
      "circuitId": "silverstone",
      "url": "https://i.ibb.co/Njtz52W/Silverstone.png",
      "circuitName": "Silverstone Circuit",
      "Location": {
        "lat": "52.0786",
        "long": "-1.01694",
        "locality": "Silverstone",
        "country": "UK"
      }
    },
    {
      "circuitId": "sochi",
      "url": "https://i.ibb.co/rsRrZPr/Sochi.png",
      "circuitName": "Sochi Autodrom",
      "Location": {
        "lat": "43.4057",
        "long": "39.9578",
        "locality": "Sochi",
        "country": "Russia"
      }
    },
    {
      "circuitId": "spa",
      "url": "https://i.ibb.co/rt6W99v/Belgium.png",
      "circuitName": "Circuit de Spa-Francorchamps",
      "Location": {
        "lat": "50.4372",
        "long": "5.97139",
        "locality": "Spa",
        "country": "Belgium"
      }
    },
    {
      "circuitId": "suzuka",
      "url": "https://i.ibb.co/jrSvr8Y/Suzuka.png",
      "circuitName": "Suzuka Circuit",
      "Location": {
        "lat": "34.8431",
        "long": "136.541",
        "locality": "Suzuka",
        "country": "Japan"
      }
    },
    {
      "circuitId": "villeneuve",
      "url": "https://i.ibb.co/R0Y9zG6/Canada.png",
      "circuitName": "Circuit Gilles Villeneuve",
      "Location": {
        "lat": "45.5",
        "long": "-73.5228",
        "locality": "Montreal",
        "country": "Canada"
      }
    },
    {
      "circuitId": "yas_marina",
      "url": "https://i.ibb.co/DG1hb2V/AbuDhabi.png",
      "circuitName": "Yas Marina Circuit",
      "Location": {
        "lat": "24.4672",
        "long": "54.6031",
        "locality": "Abu Dhabi",
        "country": "UAE"
      }
    }
  ]
}]